[
  {
    "name": "Colosseum",
    "type": "landmark",
    "lat": 41.8902,
    "lng": 12.4922,
    "address": "Piazza del Colosseo, 1, 00184 Roma",
    "tags": ["history", "architecture", "culture"],
    "avg_cost": "mid-range",
    "duration_minutes": 120,
    "open_hours": "09:00-19:00",
    "description": "Two thousand years old and still astonishing at street level. The underground hypogeum and third ring are worth the small upgrade ticket — book well in advance."
  },
  {
    "name": "Roman Forum",
    "type": "landmark",
    "lat": 41.8925,
    "lng": 12.4853,
    "address": "Via Sacra, 00186 Roma",
    "tags": ["history", "architecture"],
    "avg_cost": "mid-range",
    "duration_minutes": 90,
    "open_hours": "09:00-19:00",
    "description": "The heart of ancient Rome, included with your Colosseum ticket. Bring a map or a good audio guide — without context it's a beautiful field of columns; with it, the whole city comes alive."
  },
  {
    "name": "Vatican Museums & Sistine Chapel",
    "type": "museum",
    "lat": 41.9065,
    "lng": 12.4536,
    "address": "Viale Vaticano, 00165 Roma",
    "tags": ["art", "history", "culture"],
    "avg_cost": "mid-range",
    "duration_minutes": 180,
    "open_hours": "09:00-18:00",
    "description": "The Sistine Chapel ceiling is the reason people cry in museums — genuinely. Book timed entry months ahead. The Raphael Rooms and the Gallery of Maps are almost as good."
  },
  {
    "name": "St. Peter's Basilica",
    "type": "landmark",
    "lat": 41.9022,
    "lng": 12.4539,
    "address": "Piazza San Pietro, 00120 Città del Vaticano",
    "tags": ["history", "art", "architecture"],
    "avg_cost": "budget",
    "duration_minutes": 90,
    "open_hours": "07:00-19:00",
    "description": "Climb the dome for a panorama over Rome that's simply unforgettable. The interior — Michelangelo's Pietà, Bernini's baldachin — is as overwhelming as architecture gets."
  },
  {
    "name": "Pantheon",
    "type": "landmark",
    "lat": 41.8986,
    "lng": 12.4769,
    "address": "Piazza della Rotonda, 00186 Roma",
    "tags": ["history", "architecture"],
    "avg_cost": "budget",
    "duration_minutes": 60,
    "open_hours": "09:00-19:00",
    "description": "Almost 2,000 years old and its unreinforced concrete dome is still the world's largest. The oculus lets in a single column of light that moves across the floor all day."
  },
  {
    "name": "Trevi Fountain",
    "type": "landmark",
    "lat": 41.9009,
    "lng": 12.4833,
    "address": "Piazza di Trevi, 00187 Roma",
    "tags": ["art", "history", "sightseeing"],
    "avg_cost": "budget",
    "duration_minutes": 45,
    "open_hours": "00:00-23:59",
    "description": "Extravagant, theatrical, and impossible to be unmoved by — especially just before dawn when it's quiet. The coin toss tradition fills the fountain with €1.5 million a year."
  },
  {
    "name": "Borghese Gallery",
    "type": "museum",
    "lat": 41.9143,
    "lng": 12.4921,
    "address": "Piazzale Scipione Borghese, 5, 00197 Roma",
    "tags": ["art", "history"],
    "avg_cost": "mid-range",
    "duration_minutes": 120,
    "open_hours": "09:00-19:00",
    "description": "Strict two-hour timed entry into one of the great small museums — Bernini's Apollo and Daphne, Caravaggio's Boy with a Basket of Fruit, Canova's Pauline Bonaparte. Unmissable."
  },
  {
    "name": "Trastevere Neighbourhood Walk",
    "type": "attraction",
    "lat": 41.8896,
    "lng": 12.4695,
    "address": "Trastevere, 00153 Roma",
    "tags": ["culture", "history", "nightlife"],
    "avg_cost": "budget",
    "duration_minutes": 90,
    "open_hours": "09:00-23:00",
    "description": "The medieval quarter across the Tiber — cobblestone alleys, ivy-draped walls, Santa Maria in Trastevere glowing at the centre. Evenings here are as good as Rome gets."
  },
  {
    "name": "Piazza Navona",
    "type": "attraction",
    "lat": 41.8992,
    "lng": 12.4731,
    "address": "Piazza Navona, 00186 Roma",
    "tags": ["art", "history", "sightseeing"],
    "avg_cost": "budget",
    "duration_minutes": 45,
    "open_hours": "00:00-23:59",
    "description": "Built on the footprint of Domitian's stadium — three Bernini fountains, Borromini's church on the west side, and the kind of street performers who actually draw a crowd."
  },
  {
    "name": "Castel Sant'Angelo",
    "type": "landmark",
    "lat": 41.9031,
    "lng": 12.4663,
    "address": "Lungotevere Castello, 50, 00193 Roma",
    "tags": ["history", "sightseeing", "architecture"],
    "avg_cost": "budget",
    "duration_minutes": 90,
    "open_hours": "09:00-19:30",
    "description": "From Hadrian's mausoleum to papal fortress to prison — the rooftop terrace over the Tiber is one of Rome's best evening views, especially at golden hour."
  },
  {
    "name": "Ostia Antica",
    "type": "attraction",
    "lat": 41.7553,
    "lng": 12.2910,
    "address": "Viale dei Romagnoli, 717, 00121 Ostia Antica RM",
    "tags": ["history", "adventure"],
    "avg_cost": "budget",
    "duration_minutes": 180,
    "open_hours": "09:00-19:00",
    "description": "Rome's ancient port city, 30 minutes by train — walkable ruins of apartment blocks, bakeries, brothels, and mosaic floors. More evocative and far less crowded than Pompeii."
  },
  {
    "name": "Da Enzo al 29",
    "type": "restaurant",
    "lat": 41.8878,
    "lng": 12.4699,
    "address": "Via dei Vascellari, 29, 00153 Roma",
    "tags": ["food"],
    "avg_cost": "mid-range",
    "duration_minutes": 90,
    "open_hours": "12:30-14:30,19:30-22:30",
    "description": "A Trastevere classic — cacio e pepe, coda alla vaccinara, tiramisu made in-house. Tables spill out onto the cobblestones. Book a few days ahead or arrive early."
  },
  {
    "name": "Roscioli Salumeria",
    "type": "restaurant",
    "lat": 41.8950,
    "lng": 12.4751,
    "address": "Via dei Giubbonari, 21, 00186 Roma",
    "tags": ["food", "culture"],
    "avg_cost": "mid-range",
    "duration_minutes": 75,
    "open_hours": "08:00-16:00,18:00-23:00",
    "description": "Half wine bar, half deli — the cured meats, aged cheeses, and their cacio e pepe are famous. The wine list is extraordinary. Book dinner ahead; lunch is easier to walk into."
  },
  {
    "name": "Supplì Roma",
    "type": "restaurant",
    "lat": 41.8988,
    "lng": 12.4728,
    "address": "Via di San Francesco a Ripa, 137, 00153 Roma",
    "tags": ["food"],
    "avg_cost": "budget",
    "duration_minutes": 30,
    "open_hours": "11:00-22:00",
    "description": "Rome's best street food: fried supplì (rice balls stuffed with mozzarella and ragù), fiori di zucca, and baccalà in the Campo de' Fiori area. Eat standing at the window."
  },
  {
    "name": "La Pergola",
    "type": "restaurant",
    "lat": 41.9064,
    "lng": 12.4576,
    "address": "Via Alberto Cadlolo, 101, 00136 Roma",
    "tags": ["food"],
    "avg_cost": "luxury",
    "duration_minutes": 150,
    "open_hours": "19:30-23:00",
    "description": "Rome's only three-Michelin-star restaurant, perched above the city with a view of the Vatican dome. Heinz Beck's menu is one of the finest dining experiences in Italy."
  },
  {
    "name": "Campo de' Fiori Market",
    "type": "attraction",
    "lat": 41.8956,
    "lng": 12.4722,
    "address": "Campo de' Fiori, 00186 Roma",
    "tags": ["food", "culture", "history"],
    "avg_cost": "budget",
    "duration_minutes": 60,
    "open_hours": "07:00-14:00",
    "description": "A morning market in the square where Giordano Bruno was burned for heresy. Fruit, vegetables, flowers, street food — and the bronze statue of Bruno looking wryly over it all."
  },
  {
    "name": "Palatine Hill",
    "type": "landmark",
    "lat": 41.8890,
    "lng": 12.4874,
    "address": "Via Sacra, 00186 Roma",
    "tags": ["history", "nature", "sightseeing"],
    "avg_cost": "mid-range",
    "duration_minutes": 75,
    "open_hours": "09:00-19:00",
    "description": "Included with the Colosseum ticket — the original hill of Rome, now an archaeological park above the Forum. The views over the Circus Maximus and the city are exceptional."
  },
  {
    "name": "Appia Antica Sunday Bike Ride",
    "type": "attraction",
    "lat": 41.8573,
    "lng": 12.5124,
    "address": "Via Appia Antica, 00179 Roma",
    "tags": ["history", "nature", "adventure"],
    "avg_cost": "budget",
    "duration_minutes": 150,
    "open_hours": "08:00-19:00",
    "description": "The Appian Way is car-free on Sundays — rent a bike and ride past Roman tomb ruins, catacombs, and open farmland. An oddly rural escape ten minutes from the centre."
  },
  {
    "name": "Aventine Hill & Orange Garden",
    "type": "park",
    "lat": 41.8831,
    "lng": 12.4810,
    "address": "Parco Savello, Via Santa Sabina, 00153 Roma",
    "tags": ["nature", "history", "sightseeing"],
    "avg_cost": "budget",
    "duration_minutes": 45,
    "open_hours": "07:00-21:00",
    "description": "A walled rose garden above the Tiber with a perfectly framed keyhole view through the Knights of Malta gate straight down to St. Peter's dome. A secret Rome shares only with those who look."
  },
  {
    "name": "Galleria Doria Pamphilj",
    "type": "museum",
    "lat": 41.8993,
    "lng": 12.4793,
    "address": "Via del Corso, 305, 00186 Roma",
    "tags": ["art", "history"],
    "avg_cost": "mid-range",
    "duration_minutes": 90,
    "open_hours": "09:00-19:00",
    "description": "A private palace collection that tourists mostly walk past — Velázquez's portrait of Pope Innocent X, Caravaggio's Rest on the Flight into Egypt, all in gilded rooms. Come here instead of the Louvre."
  },
  {
    "name": "Bioparco Rome",
    "type": "attraction",
    "lat": 41.9216,
    "lng": 12.4777,
    "address": "Viale del Giardino Zoologico, 20, 00197 Roma",
    "tags": ["nature", "adventure"],
    "avg_cost": "mid-range",
    "duration_minutes": 120,
    "open_hours": "09:30-17:00",
    "description": "Rome's zoo inside the Villa Borghese gardens — good for a slower afternoon, especially with kids. The elephant house and the nocturnal animals section are highlights."
  },
  {
    "name": "Ara Pacis Museum",
    "type": "museum",
    "lat": 41.9058,
    "lng": 12.4749,
    "address": "Lungotevere in Augusta, 00186 Roma",
    "tags": ["history", "art"],
    "avg_cost": "budget",
    "duration_minutes": 60,
    "open_hours": "09:30-19:30",
    "description": "Augustus's Altar of Peace from 13 BC, preserved in a sleek Richard Meier pavilion. The carved procession reliefs are as refined as anything Rome produced."
  },
  {
    "name": "Testaccio Market",
    "type": "restaurant",
    "lat": 41.8793,
    "lng": 12.4754,
    "address": "Via Beniamino Franklin, 00153 Roma",
    "tags": ["food", "culture"],
    "avg_cost": "budget",
    "duration_minutes": 75,
    "open_hours": "07:00-15:00",
    "description": "The best food market in Rome — inside a purpose-built hall in the working-class neighbourhood that invented Roman cuisine. Maritozzi, offal sandwiches, fresh pasta to take away."
  },
  {
    "name": "Baths of Caracalla",
    "type": "landmark",
    "lat": 41.8792,
    "lng": 12.4925,
    "address": "Viale delle Terme di Caracalla, 52, 00153 Roma",
    "tags": ["history", "architecture"],
    "avg_cost": "budget",
    "duration_minutes": 90,
    "open_hours": "09:00-18:00",
    "description": "The scale is staggering — these public baths held 1,600 people at once. The intact mosaic floors, the barrel vaults still intact, the operatic setting: summer concerts here are legendary."
  },
  {
    "name": "Gelato at Fatamorgana",
    "type": "restaurant",
    "lat": 41.8998,
    "lng": 12.4780,
    "address": "Via Laurina, 10, 00187 Roma",
    "tags": ["food"],
    "avg_cost": "budget",
    "duration_minutes": 30,
    "open_hours": "12:00-21:00",
    "description": "Rome's best artisanal gelato — 100% gluten-free and made with unusual flavour combinations: jasmine and honey, basil pine nut, Sicilian pistachio. Trust the house recommendation."
  }
]
